[
  {
    "name": "YourType",
    "phone": "8 906 056-35-36",
    "type": "Сервис",
    "address": "Московская обл., Люберецкий р-н, пос. Чкалово, ул. Токаревская, д. 15",
    "lat": 55.636452663034625,
    "lon": 37.93270077556372,
    "website": "http://yourtype.pro/",
    "features": [
      "электрика",
      "диагностика",
      "ремонт",
      "свап."
    ]
  }, {
    "name": "RRR-customz",
    "phone": "8 915 027-11-00",
    "type": "Сервис",
    "address": "ул. Кожуховская горка, д. 2а",
    "lat": 55.7134223,
    "lon": 37.9302271,
    "website": "https://vk.com/rrrcustomz",
    "features": [
      "общее техническое обслуживание",
      "обслуживание ходовой части, подвески",
      "обслуживание систем отопления и охлаждения",
      "электрика",
      "диагностика и ремонт электронных систем",
      "обслуживание трансмиссии",
      "обслуживание рулевого управления",
      "обслуживание двигателя",
      "тюнинг",
      "постройка спортивных автомобилей.",
      "дино-стенд"
    ]
  }, {
    "name": "Прайм-Авто",
    "phone": "8 926 574-26-24",
    "type": "Сервис",
    "address": "ул. Свободы, д. 39, стр. 5",
    "lat": 55.842482,
    "lon": 37.453939,
    "features": [
      "общее техническое обслуживание",
      "обслуживание ходовой части, подвески",
      "обслуживание систем отопления и охлаждения",
      "электрика",
      "диагностика и ремонт электронных систем",
      "обслуживание трансмиссии",
      "обслуживание рулевого управления",
      "обслуживание двигателя",
      "тюнинг",
      "постройка спортивных автомобилей",
      "сход-развал"
    ]
  }, {
    "name": "Honda REM",
    "phone": "8 906 778-57-46",
    "type": "Сервис",
    "address": "ул. Красносолнечная, д. 40б",
    "website": "http://hondarem.ru/",
    "lat": 55.715390,
    "lon": 37.846452,
    "features": [
      "общее техническое обслуживание",
      "обслуживание ходовой части, подвески",
      "обслуживание систем отопления и охлаждения",
      "электрика",
      "диагностика и ремонт электронных систем",
      "обслуживание трансмиссии",
      "обслуживание рулевого управления",
      "обслуживание двигателя"
    ]
  }, {
    "name": "Жуковский",
    "phone": "8 915 335-44-45",
    "type": "Сервис",
    "address": "г. Жуковский, ул. Кооперативная, д. 2",
    "lat": 55.573083,
    "lon": 38.115050,
    "features": [
      "общее техническое обслуживание",
      "обслуживание ходовой части, подвески",
      "обслуживание систем отопления и охлаждения",
      "электрика",
      "диагностика и ремонт электронных систем",
      "обслуживание трансмиссии",
      "обслуживание рулевого управления",
      "обслуживание двигателя"
    ]
  }, {
    "name": "Ниссан-сервис",
    "phone": "8 903 979-08-85",
    "type": "Сервис и магазин",
    "address": "ул. 2-я Измайловского Зверинца, д. 19а",
    "lat": 55.778111,
    "lon": 37.746096,
    "features": [
      "Клубный сервис Ниссан",
      "общее техническое обслуживание",
      "обслуживание ходовой части, подвески",
      "обслуживание систем отопления и охлаждения",
      "электрика",
      "диагностика и ремонт электронных систем",
      "обслуживание трансмиссии",
      "обслуживание рулевого управления",
      "обслуживание двигателя"
    ]
  }, {
    "name": "GAS",
    "phone": "8 926 163-47-24",
    "type": "Сервис",
    "address": "г. Чехов, ул. Маркова, д. 88",
    "lat": 55.1666192253574,
    "lon": 37.43774503469467,
    "features": [
      "общее техническое обслуживание",
      "обслуживание ходовой части, подвески",
      "обслуживание систем отопления и охлаждения",
      "электрика",
      "диагностика и ремонт электронных систем",
      "обслуживание трансмиссии",
      "обслуживание рулевого управления",
      "обслуживание двигателя"
    ]
  }, {
    "name": "Автомасла на АЗС «Скорпион»",
    "phone": "8 926 318-59-13",
    "type": "Магазин",
    "address": "г. Чехов, ул. Товарная, д. 6б",
    "lat": 55.1470362745587,
    "lon": 37.48984292149544,
    "features": [
      "экспресс-станция по замене масла"
    ]
  }, {
    "name": "ГСК-моторс",
    "phone": "8 916 771-09-87",
    "type": "Сервис",
    "address": "г. Чехов, ул. Весенняя, 30 (ГСК), бокс 204",
    "lat": 55.158378976826256,
    "lon": 37.47420832514763,
    "features": [
      "общее техническое обслуживание",
      "обслуживание ходовой части, подвески",
      "обслуживание систем отопления и охлаждения",
      "электрика",
      "диагностика и ремонт электронных систем",
      "обслуживание трансмиссии",
      "обслуживание рулевого управления",
      "обслуживание двигателя"
    ]
  }, {
    "name": "БОКС_202",
    "phone": "8 926 125-15-41",
    "type": "Сервис",
    "address": "г. Чехов, ул. Весенняя, 30 (ГСК), бокс 202",
    "lat": 55.15802959433944,
    "lon": 37.474283427000046,
    "features": [
      "общее техническое обслуживание",
      "обслуживание ходовой части, подвески",
      "обслуживание систем отопления и охлаждения",
      "электрика",
      "диагностика и ремонт электронных систем",
      "обслуживание трансмиссии",
      "обслуживание рулевого управления",
      "обслуживание двигателя"
    ]
  }, {
    "name": "Японсалон",
    "phone": "8 926 329-77-11",
    "type": "Сервис",
    "website": "http://yaponsalon.ru",
    "address": "Нагорный проезд 12Г",
    "lat": 55.684513,
    "lon": 37.609341,
    "features": [
      "Прохождение очередного ТО. ",
      "Замена масла в двигателе и трансмиссии.",
      "Замена воздушных, салонных, топливных фильтров.",
      "Ремонт и замена элементов подвески.",
      "Ремонт двигателей, коробок передач, рулевых реек."
    ]
  }, {
    "name": "Ремонт АКПП Honda",
    "phone": "8 963 645-96-35",
    "type": "Сервис",
    "address": "Ул. Василия Ботылёва 52 ",
    "lat": 55.7923849,
    "lon": 37.3561381,
    "features": [
      "Диагностика",
      "Замена масла ДВС",
      "Ремонт и обслуживание АКПП автомобилей Honda",
      "Слесарные работы"
    ]
  }, {
    "name": "TURBOil",
    "phone": "8 929 620-49-51",
    "type": "",
    "address": "ул. Братеевская, д. 21, корп. 4б",
    "lat": 55.6315906854275,
    "lon": 37.75415986776352
  }
]
