[
    {
        "name": "YourType",
        "phone": "89060563536",
        "type": "сервис",
        "address": "Люберецкий р-н, пос. Чкалово, ул. Горького, ул. Токаревская, 15, Чкалово, Московская обл.",
        "lat": 55.636452663034625,
        "lon": 37.93270077556372
    }, {
        "name": "RRR-customz",
        "phone": "89150271100",
        "type": "сервис",
        "address": "ул. Кожуховская горка, д. 2а",
        "lat": 55.0,
        "lon": 37.0
    }, {
        "name": "Прайм-Авто",
        "phone": "89265742624",
        "type": "сервис",
        "address": "ул. Свободы, д.39, стр.5",
        "lat": 55.842482,
        "lon": 37.453939
    }, {
        "name": "Honda-Servis",
        "phone": "123",
        "type": "сервис",
        "address": "ул. Красносолнечная, д.40б",
        "lat": 55.715390,
        "lon": 37.846452
    }, {
        "name": "Жуковский",
        "phone": "89153354445",
        "type": "сервис",
        "address": "г. Жуковский, ул. Кооперативная, д.2",
        "lat": 55.573083,
        "lon": 38.115050
    }, {
        "name": "Ниссан-сервис",
        "phone": "89039790885",
        "type": "сервис и магазин",
        "address": "ул. 2-я Измайловского Зверинца, д.19а",
        "lat": 55.778111,
        "lon": 37.746096
    }, {
        "name": "GAS",
        "phone": "89261634724",
        "type": "сервис",
        "address": "г. Чехов, ул. Маркова, д. 88",
        "lat": 55.1666192253574,
        "lon": 37.43774503469467
    }, {
        "name": "Автомасла",
        "phone": "8 (926) 318-59-13",
        "type": "магазин",
        "address": "г. Чехов, ул. Товарная, д.6б",
        "lat": 55.1470362745587,
        "lon": 37.48984292149544
    }, {
        "name": "ГСК-моторс",
        "phone": "89167710987",
        "type": "сервис",
        "address": "г. Чехов, ул. Весенняя, 30 (ГСК)",
        "lat": 55.158378976826256,
        "lon": 37.47420832514763
    }, {
        "name": "БОКС_202",
        "phone": "89261251541",
        "type": "сервис",
        "address": "г. Чехов, ул. Весенняя, 30 (ГСК)",
        "lat": 55.15802959433944,
        "lon": 37.474283427000046
    }, {
        "name": "TURBOil",
        "phone": "89296204951",
        "type": "",
        "address": "ул. Братеевская, д.21, корп.4б",
        "lat": 55.6315906854275,
        "lon": 37.75415986776352
    }
]
